[{"id":"QVGHZ_gV-0fO8GeHnNK17A","name":"The Voodoo Lounge","lat":29.9606433,"lon":-90.0680162,"address":"718 N Rampart St","categories":"Gay Bars, Bars, Dive Bars, Lounges, Nightlife"},{"id":"sBSE_CjEBjv5-89KK69Zrg","name":"Black Penny","lat":29.9604368791,"lon":-90.0682618348,"address":"700 N Rampart","categories":"Dive Bars, Bars, Nightlife"},{"id":"fyVp9XdUrcMxBUn4h1ZmmQ","name":"Rampart Treehouse","lat":29.9611404,"lon":-90.0675418,"address":"740 N Rampart St","categories":"Restaurants, Sandwiches, Pizza, Beer Bar, Bars, Nightlife, Salad"},{"id":"wQNkpi9RvpuoiDB-CiHxog","name":"Bar Tonique","lat":29.9615449,"lon":-90.0670948,"address":"820 N Rampart St","categories":"Bars, Lounges, Nightlife"},{"id":"A1vJnAwPr8ak6b3X1eG8Jg","name":"GrandPre's","lat":29.9617774,"lon":-90.0669485,"address":"834 N Rampart St","categories":"Nightlife, Bars, Gay Bars"},{"id":"wViqzRr9xT0S5n-Cl18cAw","name":"The Page","lat":29.9594779,"lon":-90.068991,"address":"542 N Rampart St","categories":"Bars, Gay Bars, Nightlife"},{"id":"4DEO0nDjhS6DifyFP7yJNA","name":"Betty\u2019s Bar & Bistro","lat":29.9598306,"lon":-90.0673229,"address":"700 Burgundy St","categories":"Nightlife, Gay Bars, Restaurants, Cajun\/Creole, French, American (Traditional), Burgers, Bars"},{"id":"iIyIVlK4ZeIIp9RayXRrNw","name":"Rawhide 2010","lat":29.9605085,"lon":-90.0667025,"address":"740 Burgundy St","categories":"Bars, Nightlife, Lounges, Gay Bars"},{"id":"4cZsFnpFPWvPet0_X9imcQ","name":"Fahy's Irish Pub","lat":29.958928,"lon":-90.068153,"address":"540 Burgundy St","categories":"Nightlife, Bars, Irish Pub, Dive Bars, Pubs"},{"id":"OyF6c2he3Aej9itlH8oz-A","name":"Jewel Of The South","lat":29.958616,"lon":-90.069534,"address":"1026 St Louis St","categories":"Gastropubs, British, Restaurants, Breakfast & Brunch, Bars, Nightlife, Southern, American (New), Cocktail Bars"},{"id":"JF-z1ORPdnduyfQ0Vy0zuQ","name":"Gold Mine Saloon","lat":29.9593341,"lon":-90.0665566,"address":"701 Dauphine St","categories":"Nightlife, Bars"},{"id":"NJTikPQCpas4q7HZInlykQ","name":"Corner Pocket","lat":29.9581469948,"lon":-90.0688748158,"address":"940 St Louis St","categories":"Nightlife, Bars, Gay Bars"},{"id":"R2I0DYnyEjn-Eu5eweuOQQ","name":"Good Friends Bar","lat":29.9599591,"lon":-90.0657543,"address":"740 Dauphine St","categories":"Bars, Gay Bars, Sports Bars, Lounges, Nightlife"},{"id":"7k-tfmFwqgPYPMIGik4HIg","name":"American Townhouse","lat":29.9630033685,"lon":-90.0657422869,"address":"1012 N Rampart St","categories":"Bars, Gay Bars, Nightlife, American (New), Restaurants"},{"id":"bMxC4RqhNxKP6Y55tqjHuw","name":"700 Club","lat":29.963022,"lon":-90.065745,"address":"1012 N Rampart St","categories":"Adult Entertainment, Gay Bars, Nightlife, Bars"},{"id":"x3GaXfpv0AUQhxb3aH5VgQ","name":"Crossing","lat":29.957644,"lon":-90.068071,"address":"439 Dauphine St","categories":"Nightlife, Gay Bars, Bars"},{"id":"zvGNZF827KyzLupKiG4Xtw","name":"Three Legged Dog","lat":29.9575258,"lon":-90.0693665,"address":"400 Burgundy St","categories":"Restaurants, American (Traditional), Bars, Nightlife"},{"id":"eD018QIwrljtaF4Dqe0A6Q","name":"Spirits On Bourbon","lat":29.958254,"lon":-90.066304,"address":"615 Bourbon St","categories":"Bars, Nightlife"},{"id":"_h94BxrrFKPvzUIRx3Xkhg","name":"Saints And Sinners","lat":29.9584184,"lon":-90.0661059803,"address":"627 Bourbon St","categories":"Seafood, Nightlife, Piano Bars, Restaurants, Cocktail Bars, Cajun\/Creole, Bars, Sandwiches"},{"id":"u08-CrCg_f9sdGD5BtL-QA","name":"St. Pat's Irish Coffeehouse","lat":29.9574355,"lon":-90.069184,"address":"933 Conti St","categories":"Arts & Entertainment, Whiskey Bars, Food, Bars, Music Venues, Coffee & Tea, Cocktail Bars, Irish Pub, Nightlife"},{"id":"232qg1k9QV0pNt90jyTatA","name":"Maison Bourbon","lat":29.9586117,"lon":-90.0658633,"address":"641 Bourbon St","categories":"Jazz & Blues, Nightlife, Bars, Arts & Entertainment, Music Venues"},{"id":"WYSqcpQv0OA8RyE7f2mnnw","name":"Effervescence","lat":29.9634452,"lon":-90.0654254,"address":"1036 North Rampart St","categories":"Restaurants, Bars, Tapas\/Small Plates, Wine Bars, Lounges, Nightlife, Champagne Bars"},{"id":"JlHO0nd0yXCQbiIIvJm2jQ","name":"Bourbon Heat","lat":29.9589054,"lon":-90.0655896,"address":"711 Bourbon St","categories":"Nightlife, Dance Clubs, Burgers, Restaurants, Bars"},{"id":"gM_MsfKNj739jK2NBZw3RQ","name":"New Orleans Original Daiquiris","lat":29.9584761,"lon":-90.0659362,"address":"633 Bourbon St","categories":"Cocktail Bars, Bars, Nightlife"},{"id":"wjY_4JELRCXgiWC4V7nnGg","name":"Fat Tuesday","lat":29.9584761,"lon":-90.0659362,"address":"633 Bourbon St","categories":"Bars, Nightlife"},{"id":"0eP5RJNSsSYdPvUY3ZbTvw","name":"Cat's Meow","lat":29.9587931,"lon":-90.0656443,"address":"701 Bourbon St","categories":"Bars, Karaoke, Nightlife"},{"id":"Rbjt0lAkzV7qv_H-5WYQPQ","name":"My Bar 635","lat":29.958515,"lon":-90.0658655,"address":"635 Bourbon St","categories":"Nightlife, Bars"},{"id":"-s6EMVPCBrsocFDuiMMqxQ","name":"Cornet","lat":29.9586062681,"lon":-90.0657682266,"address":"700 Bourbon St","categories":"Event Planning & Services, Venues & Event Spaces, Cajun\/Creole, Caterers, Cocktail Bars, Restaurants, Bars, Nightlife"},{"id":"e4ufPiOnXhQZxdX2XDfDRA","name":"Ticklers Dueling Piano Bar","lat":29.9585064338,"lon":-90.0658559488,"address":"635 Bourbon St","categories":"Piano Bars, Nightlife"},{"id":"Zh1JlS8z9pqJ39vs1hW7Ug","name":"Courtyard Grill Restaurant at Bourbon Heat","lat":29.9589054,"lon":-90.0655001977,"address":"711 Bourbon St","categories":"American (Traditional), Cajun\/Creole, Bars, Nightlife, Dance Clubs, Restaurants"},{"id":"zUjMuiwXTkJTfdLGA1SY2g","name":"Potions Lounge","lat":29.9593377,"lon":-90.0652064,"address":"733 Bourbon St","categories":"Nightlife, Speakeasies, Bars"},{"id":"UH87t9fT_oTLMZfr5iCbQg","name":"Tropical Isle","lat":29.959154,"lon":-90.0653159,"address":"721 Bourbon St","categories":"Bars, Nightlife"},{"id":"snguCYg0ierKRuUTxCDH7w","name":"Fritzel's European Jazz Pub","lat":29.9593348,"lon":-90.0652064,"address":"733 Bourbon St","categories":"Bars, Arts & Entertainment, Event Planning & Services, Musicians, Food, Pubs, Jazz & Blues, Restaurants, Nightlife"},{"id":"6y1SdVxPauHLfCxgf5yZDA","name":"May Baily's Place","lat":29.9572932957,"lon":-90.0684151053,"address":"415 Dauphine St","categories":"Bars, Nightlife"},{"id":"TzkVUJab9Sh0CqDk2sCF-w","name":"Bayona","lat":29.9573006,"lon":-90.0680821,"address":"430 Dauphine St","categories":"Restaurants, Mediterranean, Salad, American (New), Nightlife, Bars, Gastropubs, Gluten-Free"},{"id":"6bYw8adIYkIzW-R9Eq_czQ","name":"SLUSH Frozen Cocktails","lat":29.9579575,"lon":-90.0663997,"address":"601 Bourbon St","categories":"Nightlife, Bars, Cocktail Bars"},{"id":"AU-B663F3MPO7W-goWwwXA","name":"B Mac's","lat":29.9574424,"lon":-90.0673586,"address":"819 St Louis","categories":"Nightlife, Bars"},{"id":"w7O9Sr3hz-qPOogSTDq3pw","name":"Bourbon Pub and Parade","lat":29.9596359355,"lon":-90.0648864061,"address":"801 Bourbon St","categories":"Bars, Dance Clubs, Karaoke, Nightlife, Gay Bars"},{"id":"UvSX-22jnVnrnSeVwBKsPQ","name":"The Starlight","lat":29.9573821536,"lon":-90.0672949999,"address":"817 St Louis St","categories":"Bars, Nightlife"},{"id":"Xhnkg91ACCXkA9_kfGkNiA","name":"Local 718","lat":29.9588844342,"lon":-90.0652950272,"address":"718 Bourbon St","categories":"Southern, Bars, Nightlife, Restaurants, Sports Bars, Cajun\/Creole, Dive Bars"},{"id":"I6M31tAZh-v2Y6v77jwNMQ","name":"Avila Grill","lat":29.9573461635,"lon":-90.0673227757,"address":"817 St Louis St","categories":"Venezuelan, Bars, Asian Fusion, Nightlife, Latin American, Cocktail Bars, Restaurants"},{"id":"JbxOWK2tMUkNmYPvjPBVoA","name":"Krazy Korner","lat":29.9584311,"lon":-90.0656443,"address":"640 Bourbon St","categories":"Bars, Nightlife"},{"id":"agRssYozLGjGEsBZAo1Cbw","name":"Razzoo Bar & Patio","lat":29.9574432373,"lon":-90.0670471191,"address":"511 Bourbon St","categories":"Music Venues, Dance Clubs, Arts & Entertainment, Bars, Nightlife"},{"id":"uYUsK2muRiy0ahFZchlVEw","name":"Bourbon O Bar","lat":29.9590515552,"lon":-90.0651563866,"address":"717 Orleans St","categories":"Bars, Nightlife, Music Venues, Lounges, Event Planning & Services, Hotels, Hotels & Travel, Arts & Entertainment"},{"id":"Qo14LZITJ4fIhSdqOVsm6w","name":"Pat O'Brien's Courtyard Restaurant","lat":29.9581881,"lon":-90.0658539,"address":"624 Bourbon St","categories":"Cocktail Bars, Event Planning & Services, Party & Event Planning, Bars, Nightlife, Cajun\/Creole, Restaurants, Venues & Event Spaces"},{"id":"QW3Y7RWlDLqbmodWrd2rfA","name":"Court Tavern Poboys","lat":29.9580276,"lon":-90.0660148,"address":"614 Bourbon St","categories":"Cajun\/Creole, Bars, Sandwiches, Nightlife, Beer Bar, Restaurants"},{"id":"ol6aagHm1hDZV7HsirMh_A","name":"Napoleon's Itch","lat":29.959361351,"lon":-90.0648769475,"address":"734 Bourbon St","categories":"Nightlife, Cocktail Bars, Dance Clubs, Bars, Gay Bars"},{"id":"grjFEAN9gXOKQFEta4yBJg","name":"Tropical Isle Original","lat":29.957821,"lon":-90.0661737,"address":"600 Bourbon St","categories":"Bars, Nightlife"},{"id":"5j2ywRGhhYdia7CuQSzkoA","name":"Funky 544","lat":29.9576176,"lon":-90.0664106,"address":"544 Bourbon St","categories":"Bars, Dance Clubs, Nightlife"},{"id":"Q8uNMM0_xcid82qjqPs-IQ","name":"Boondock Saint","lat":29.9585726,"lon":-90.065297,"address":"731 Saint Peter St","categories":"Bars, Jazz & Blues, Arts & Entertainment, Nightlife, Dive Bars"},{"id":"VlqngN60qoCeOlUvWXD4qg","name":"Palm&Pine","lat":29.957459742,"lon":-90.070771426,"address":"308 N Rampart St","categories":"Cocktail Bars, Specialty Food, Bars, Nightlife, Restaurants, American (New), American (Traditional), Food"},{"id":"ZMkZj5YsBW3XHH5fOBh6fw","name":"Deja Vu Restaurant & Bar","lat":29.956939,"lon":-90.0684907,"address":"400 Dauphine St","categories":"American (New), Burgers, Beer Bar, Breakfast & Brunch, Dive Bars, Diners, Restaurants, Nightlife, Bars, American (Traditional)"},{"id":"QCZD4h64f1QbTMn0MT-i5A","name":"Oz New Orleans","lat":29.9594705,"lon":-90.0647355,"address":"800 Bourbon St","categories":"Nightlife, Gay Bars, Dance Clubs, Bars"},{"id":"AStCov7pI9nBwpIJhhjihQ","name":"Molly's Irish Pub","lat":29.9576752837,"lon":-90.0662362933,"address":"732 Toulouse St","categories":"Bars, Irish Pub, Pubs, Dive Bars, Nightlife"},{"id":"2waFgIxeT17sUoI-1WZLCg","name":"Big Easy Daiquiris","lat":29.957219,"lon":-90.0670821,"address":"501 Bourbon St","categories":"Restaurants, Pizza, Nightlife, Cocktail Bars, Bars"},{"id":"RmDn5oeB_HABKHrEx3F2HA","name":"Crescent City Cigar Shop","lat":29.9587909707,"lon":-90.0650623695,"address":"730 Orleans Ave","categories":"Lounges, Nightlife, Cigar Bars, Shopping, Tobacco Shops, Bars"},{"id":"VIWq3oMoxJ9LQ9OjMZdryQ","name":"Toulouse Dive Bar","lat":29.9575986346,"lon":-90.0662578915,"address":"730 Toulouse","categories":"Bars, Dive Bars, Nightlife"},{"id":"aPDpK9mHhrabKyspSKME6g","name":"Cu\u00f1ada","lat":29.9568475,"lon":-90.0683818,"address":"833 Conti St","categories":"Nightlife, Diners, Tacos, Mexican, Bars, Restaurants"},{"id":"7XLaWkzIWp0RzQDIy6MknA","name":"Boot Scootin Rodeo","lat":29.9573465,"lon":-90.0665566,"address":"522 Bourbon St","categories":"Nightlife, Bars"},{"id":"x9MRsxmxVvptDurBOzXSQg","name":"Peychaud\u2019s","lat":29.9576509,"lon":-90.0660263,"address":"727 Toulouse St","categories":"Bars, Nightlife, Cocktail Bars"},{"id":"SryvKdkPRDiDQKVgBuFffg","name":"Bourbon Bandstand","lat":29.9569855362,"lon":-90.0672305758,"address":"441 Bourbon St","categories":"Dive Bars, Arts & Entertainment, Lounges, Nightlife, Music Venues, Dance Clubs, Bars"},{"id":"4oLDVoc2BDh-zzbEDCN3_g","name":"Little Tropical Isle","lat":29.9569509,"lon":-90.0673138,"address":"435 Bourbon St","categories":"Nightlife, Bars"},{"id":"iV0oX7XD-HAk6jPYX40_hg","name":"Cafe Lafitte In Exile","lat":29.9603886292,"lon":-90.0642254949,"address":"901 Bourbon St","categories":"Nightlife, Lounges, Bars, Gay Bars"},{"id":"gSwoU8QdbyHC4rLTVbubKQ","name":"Chris Owens Club & Balcony","lat":29.9570855,"lon":-90.0669387,"address":"500 Bourbon St","categories":"Music Venues, Dive Bars, Bars, Nightlife, Dance Clubs, Arts & Entertainment"},{"id":"6Ty-KKWq6hLZYW8DWEHYvg","name":"Pat O'Brien\u2019s","lat":29.9581828,"lon":-90.0652974,"address":"718 St Peter St","categories":"American (Traditional), Arts & Entertainment, Music Venues, Beer, Wine & Spirits, Cocktail Bars, Restaurants, Bars, Nightlife, Food, Piano Bars"},{"id":"3fVYGQr_ldW2_1QlXJjpaQ","name":"The Bombay Club","lat":29.956688376,"lon":-90.0684624875,"address":"830 Conti St","categories":"Arts & Entertainment, Southern, Cajun\/Creole, Nightlife, Jazz & Blues, Bars, Breakfast & Brunch, American (Traditional), Restaurants"},{"id":"vE9RVzNtNbEglPiRm3DvxA","name":"Tropical Isle","lat":29.9586815,"lon":-90.064896,"address":"718 Orleans Ave, Ste 10","categories":"Nightlife, Bars"},{"id":"EC20rN7JtmAPIxcw3MTzcQ","name":"Orleans Grapevine Wine Bar & Bistro","lat":29.9586121,"lon":-90.0649145,"address":"720 Orleans Ave","categories":"Wine Bars, Nightlife, Restaurants, Bars, American (New), Local Flavor"},{"id":"2nRFTI41Cm5GldHexAczbA","name":"Finnegan's Easy","lat":29.9583456,"lon":-90.0650605,"address":"717 St Peter St","categories":"Beer, Wine & Spirits, Sports Bars, Nightlife, Food, Bars"},{"id":"qrHwXPEese6WmFO9zEP2fQ","name":"Larry Flynt's Barely Legal Club","lat":29.9567588,"lon":-90.0675054,"address":"423 Bourbon St","categories":"Strip Clubs, Champagne Bars, Nightlife, Adult Entertainment, Cocktail Bars, Striptease Dancers, Bars"},{"id":"UTkd3bWcTn0eREADTWKyog","name":"The Will & The Way","lat":29.9575727,"lon":-90.0658268,"address":"719 Toulouse St","categories":"American (New), Bars, Nightlife, Cocktail Bars, Restaurants, Wine Bars"},{"id":"33BCnuP8VxmFzolIdgWmdQ","name":"Hideout Bar","lat":29.9567235,"lon":-90.0675942,"address":"417 Bourbon St","categories":"Venues & Event Spaces, Cocktail Bars, Bars, Nightlife, Music Venues, Arts & Entertainment, Event Planning & Services"},{"id":"kRG2ZrCT5RvwD2tajVnpjA","name":"The Dungeon","lat":29.957505,"lon":-90.0659114,"address":"738 Toulouse St","categories":"Nightlife, Arts & Entertainment, Music Venues, Bars, Dive Bars, Dance Clubs"},{"id":"Scai7ZFQLGAInHruaWFRoA","name":"Empire Bar","lat":29.9566205,"lon":-90.0681038,"address":"819 Rue Conti","categories":"Cocktail Bars, Bars, Nightlife"},{"id":"qpZD23Bp7bIVeRO6iowvqA","name":"Candlelight Lounge","lat":29.9655203,"lon":-90.0708263,"address":"925 N Robertson St","categories":"Jazz & Blues, Arts & Entertainment, Cocktail Bars, Nightlife, Bars"},{"id":"Iy7-VFi13z-ZUVtJ1M1A9A","name":"Fat Catz","lat":29.9568494,"lon":-90.0670675,"address":"440 Bourbon St","categories":"Nightlife, Bars"},{"id":"SJIQFKTW6uUsOo29w9IHxw","name":"Mambo's","lat":29.9566684,"lon":-90.0676513,"address":"411 Bourbon St","categories":"Cocktail Bars, Soul Food, Nightlife, Food, Desserts, Bars, Seafood, Cajun\/Creole, Restaurants"},{"id":"3qEjUW12sH6KOBm86ZDmTA","name":"Erin Rose","lat":29.9565666,"lon":-90.0679341,"address":"811 Conti St","categories":"Dive Bars, Irish Pub, Local Flavor, Nightlife, Pubs, Bars"},{"id":"3JOWaLAwQkYTZsgSe5HzVA","name":"Hermes Bar","lat":29.9569965,"lon":-90.0664927,"address":"725 St Louis St","categories":"Nightlife, Bars, Wine Bars, Lounges, Champagne Bars"},{"id":"7oH1VWrmDuuO5SE-t72N2A","name":"Big Easy of Bourbon","lat":29.956527,"lon":-90.067759,"address":"407 Bourbon St","categories":"Nightlife, Bars"},{"id":"Fnr1VWkzAX7cXmEgInrCXg","name":"The Upper Quarter","lat":29.9567053,"lon":-90.0703258,"address":"1000 Bienville St","categories":"Local Flavor, Hotels & Travel, Nightlife, Bars"},{"id":"KfFXchzE4JNFVij8pLwEoQ","name":"Bourbon Vibezz","lat":29.9565782,"lon":-90.0672499,"address":"420 Bourbon St","categories":"Bars, Dance Clubs, Nightlife"},{"id":"RMt69QcElQJlAS3HsoeWBg","name":"SLUSH Frozen Cocktails","lat":29.9564055,"lon":-90.0677823,"address":"401 Bourbon St","categories":"Cocktail Bars, Bars, Nightlife"},{"id":"fMLHS-Nqwjp9gFrcVqJ2LQ","name":"Beer Fest","lat":29.956454,"lon":-90.0675173,"address":"410 Bourbon St","categories":"Bars, Nightlife"},{"id":"U81x8uovusAzR1FY8TGwLw","name":"Sing Sing","lat":29.9564876556,"lon":-90.0672225952,"address":"418 Bourbon St","categories":"Karaoke, Dance Clubs, Dive Bars, Nightlife, Bars"},{"id":"6cneHJ98hAnHNBW0hGpDtQ","name":"The Hideaway","lat":29.956489,"lon":-90.067202,"address":"418 Bourbon St Upstairs","categories":"Bars, Nightlife, Dance Clubs"},{"id":"sX43wVVJVvrxSR0ajvc2ZA","name":"Sprouts Organic Cafe","lat":29.9653422,"lon":-90.0656443,"address":"1200 Henriette Delille St","categories":"Juice Bars & Smoothies, Food, Restaurants, Cafes, Vegan"},{"id":"SjiRaZoWaDpkCCpq5SsrMw","name":"Union Kitchen & Union Party Room","lat":29.9566786326,"lon":-90.0666184483,"address":"720 St Louis St","categories":"Creperies, Cajun\/Creole, Local Flavor, French, Sandwiches, Cafes, Food, Nightlife, Pubs, Breakfast & Brunch, Restaurants, Event Planning & Services, Specialty Food, Venues & Event Spaces, Delis, Bars"},{"id":"_jQEeYRXkInq_x7yJm-ORg","name":"The Famous Door","lat":29.956265,"lon":-90.06799,"address":"339 Bourbon St","categories":"Nightlife, Arts & Entertainment, Bars, Dance Clubs, Sports Bars, Music Venues"},{"id":"qclZoDz3sjT7v5xOSj5P2Q","name":"Lafitte's Blacksmith Shop Bar","lat":29.9610325369,"lon":-90.0636187172,"address":"941 Bourbon St","categories":"Nightlife, Local Flavor, Dive Bars, Bars"},{"id":"rtBrJkLRfSEdCqfXYZ-yNQ","name":"Mango Mango Daiquiris","lat":29.956303,"lon":-90.0675878,"address":"400 Bourbon St","categories":"Pretzels, Nightlife, Bars, Pizza, Restaurants, Cocktail Bars, Food"},{"id":"P95yU9WHc5fdsMl3q_D6BQ","name":"Huge Ass Beers","lat":29.9561807,"lon":-90.0680593,"address":"333 Bourbon St","categories":"Beer, Wine & Spirits, Food, Nightlife, Bars, Beer Bar, Sports Bars"},{"id":"P8y6hl6d_ZlzwlTv5KxXOg","name":"Prohibition Bar","lat":29.9561807,"lon":-90.0680593,"address":"333 Bourbon St","categories":"Nightlife, Bars, Dance Clubs"},{"id":"MDtu8_LFbbkCgzCzIoEWng","name":"The New Orleans Vampire Cafe","lat":29.9590325595,"lon":-90.0640361117,"address":"801 Royal St","categories":"Steakhouses, Cafes, Bars, Southern, Sports Bars, Cocktail Bars, Restaurants, Nightlife, Breakfast & Brunch"},{"id":"gSw40iA-LM2XrPeJttMGWw","name":"Fais Deaux Deaux","lat":29.9560809,"lon":-90.0681622,"address":"327 Bourbon St","categories":"Bars, Nightlife"},{"id":"kQJs_a1APBPp3wol7EKoeQ","name":"Vive!","lat":29.9561737,"lon":-90.0671769,"address":"717 Conti St","categories":"Nightlife, Lounges, Bars"},{"id":"rQgvzje411OZY2p9fLdycQ","name":"Copper Monkey Grill","lat":29.9561265,"lon":-90.0673167,"address":"725 Conti St","categories":"American (Traditional), Bars, Nightlife, Dive Bars, Restaurants, Food Delivery Services, Food"},{"id":"GoGss2SqsUPwP0xcI9IUuw","name":"Spitfire Coffee","lat":29.95797,"lon":-90.064442,"address":"627 St Peter St","categories":"Food, Bars, Coffee & Tea, Nightlife"},{"id":"ewUSU4zZDUYaavehQFeZVw","name":"Daquiri's Delight","lat":29.9559126227,"lon":-90.06792292,"address":"300 Bourbon St","categories":"Pizza, Nightlife, Restaurants, Bars, Cocktail Bars"},{"id":"U1gebvkhLXW-m7dRqvZKwA","name":"Musical Legends Park","lat":29.955845,"lon":-90.0684361,"address":"311 Bourbon St","categories":"Bars, Arts & Entertainment, Nightlife, Jazz & Blues"}]